[{"name":"Agordo","zone":2,"latitude":46.282317,"longitude":12.03441,"province":"BELLUNO"},{"name":"Alano di Piave","zone":3,"latitude":45.9078316,"longitude":11.9095441,"province":"BELLUNO"},{"name":"Alleghe","zone":2,"latitude":46.407347,"longitude":12.0253208,"province":"BELLUNO"},{"name":"Arsiè","zone":3,"latitude":45.9839074,"longitude":11.7593888,"province":"BELLUNO"},{"name":"Auronzo di Cadore","zone":1,"latitude":46.5512013,"longitude":12.4432048,"province":"BELLUNO"},{"name":"Belluno","zone":3,"latitude":46.1399645,"longitude":12.2175906,"province":"BELLUNO"},{"name":"Borca di Cadore","zone":1,"latitude":46.4373518,"longitude":12.2206296,"province":"BELLUNO"},{"name":"Calalzo di Cadore","zone":1,"latitude":46.447225,"longitude":12.383618,"province":"BELLUNO"},{"name":"Canale d\u0027Agordo","zone":2,"latitude":46.3570555,"longitude":11.9145555,"province":"BELLUNO"},{"name":"Castellavazzo","zone":1,"latitude":46.2859629,"longitude":12.3081481,"province":"BELLUNO"},{"name":"Cencenighe Agordino","zone":2,"latitude":46.344074,"longitude":11.9745555,"province":"BELLUNO"},{"name":"Cesiomaggiore","zone":3,"latitude":46.089074,"longitude":11.9876666,"province":"BELLUNO"},{"name":"Chies d\u0027Alpago","zone":3,"latitude":46.1745646,"longitude":12.3865382,"province":"BELLUNO"},{"name":"Cibiana di Cadore","zone":2,"latitude":46.3887592,"longitude":12.286574,"province":"BELLUNO"},{"name":"Colle Santa Lucia","zone":2,"latitude":46.4495555,"longitude":12.015,"province":"BELLUNO"},{"name":"Comelico Superiore","zone":1,"latitude":46.5906481,"longitude":12.5154814,"province":"BELLUNO"},{"name":"Cortina d\u0027Ampezzo","zone":1,"latitude":46.5373829,"longitude":12.1389217,"province":"BELLUNO"},{"name":"Danta di Cadore","zone":1,"latitude":46.567059,"longitude":12.5207966,"province":"BELLUNO"},{"name":"Domegge di Cadore","zone":1,"latitude":46.4603333,"longitude":12.4148518,"province":"BELLUNO"},{"name":"Falcade","zone":2,"latitude":46.35398,"longitude":11.8642173,"province":"BELLUNO"},{"name":"Farra d\u0027Alpago","zone":3,"latitude":46.1210362,"longitude":12.3586702,"province":"BELLUNO"},{"name":"Feltre","zone":3,"latitude":46.0165245,"longitude":11.9057269,"province":"BELLUNO"},{"name":"Fonzaso","zone":3,"latitude":46.0181296,"longitude":11.8009629,"province":"BELLUNO"},{"name":"Forno di Zoldo","zone":2,"latitude":46.3487592,"longitude":12.1831481,"province":"BELLUNO"},{"name":"Gosaldo","zone":2,"latitude":46.2221638,"longitude":11.9550301,"province":"BELLUNO"},{"name":"La Valle Agordina","zone":2,"latitude":46.2814259,"longitude":12.0661111,"province":"BELLUNO"},{"name":"Lamon","zone":3,"latitude":46.047583,"longitude":11.749076,"province":"BELLUNO"},{"name":"Lentiai","zone":3,"latitude":46.045,"longitude":12.0204814,"province":"BELLUNO"},{"name":"Limana","zone":3,"latitude":46.1037592,"longitude":12.1873518,"province":"BELLUNO"},{"name":"Livinallongo del Col di Lana","zone":2,"latitude":46.4816025,"longitude":11.9553602,"province":"BELLUNO"},{"name":"Longarone","zone":3,"latitude":46.2665915,"longitude":12.2999618,"province":"BELLUNO"},{"name":"Lorenzago di Cadore","zone":1,"latitude":46.4806481,"longitude":12.4604814,"province":"BELLUNO"},{"name":"Lozzo di Cadore","zone":1,"latitude":46.4859656,"longitude":12.444622,"province":"BELLUNO"},{"name":"Mel","zone":3,"latitude":46.0645417,"longitude":12.0881012,"province":"BELLUNO"},{"name":"Ospitale di Cadore","zone":1,"latitude":46.3283109,"longitude":12.3232381,"province":"BELLUNO"},{"name":"Pedavena","zone":3,"latitude":46.039614,"longitude":11.880379,"province":"BELLUNO"},{"name":"Perarolo di Cadore","zone":1,"latitude":46.3970697,"longitude":12.355464,"province":"BELLUNO"},{"name":"Pieve d\u0027Alpago","zone":3,"latitude":46.1677522,"longitude":12.3531863,"province":"BELLUNO"},{"name":"Pieve di Cadore","zone":1,"latitude":46.4285225,"longitude":12.3740656,"province":"BELLUNO"},{"name":"Ponte nelle Alpi","zone":3,"latitude":46.1831481,"longitude":12.2792407,"province":"BELLUNO"},{"name":"Puos d\u0027Alpago","zone":3,"latitude":46.1359629,"longitude":12.3484629,"province":"BELLUNO"},{"name":"Quero","zone":3,"latitude":45.921976,"longitude":11.931723,"province":"BELLUNO"},{"name":"Rivamonte Agordino","zone":2,"latitude":46.2539074,"longitude":12.0239074,"province":"BELLUNO"},{"name":"Rocca Pietore","zone":2,"latitude":46.4348518,"longitude":11.9778148,"province":"BELLUNO"},{"name":"San Gregorio nelle Alpi","zone":3,"latitude":46.1048507,"longitude":12.029358,"province":"BELLUNO"},{"name":"San Nicolò di Comelico","zone":1,"latitude":46.5818801,"longitude":12.5286103,"province":"BELLUNO"},{"name":"San Pietro di Cadore","zone":1,"latitude":46.5769213,"longitude":12.5926473,"province":"BELLUNO"},{"name":"San Tomaso Agordino","zone":2,"latitude":46.3817407,"longitude":11.9754814,"province":"BELLUNO"},{"name":"San Vito di Cadore","zone":1,"latitude":46.4612777,"longitude":12.2082962,"province":"BELLUNO"},{"name":"Santa Giustina","zone":3,"latitude":46.0835526,"longitude":12.042891,"province":"BELLUNO"},{"name":"Santo Stefano di Cadore","zone":1,"latitude":46.5584629,"longitude":12.5520555,"province":"BELLUNO"},{"name":"Sappada","zone":1,"latitude":46.5675,"longitude":12.6853333,"province":"BELLUNO"},{"name":"Sedico","zone":3,"latitude":46.1112624,"longitude":12.0969587,"province":"BELLUNO"},{"name":"Selva di Cadore","zone":2,"latitude":46.4510084,"longitude":12.0386119,"province":"BELLUNO"},{"name":"Seren del Grappa","zone":3,"latitude":45.9887843,"longitude":11.8427247,"province":"BELLUNO"},{"name":"Sospirolo","zone":3,"latitude":46.1417407,"longitude":12.072037,"province":"BELLUNO"},{"name":"Soverzene","zone":3,"latitude":46.204537,"longitude":12.3042407,"province":"BELLUNO"},{"name":"Sovramonte","zone":3,"latitude":46.059537,"longitude":11.7876666,"province":"BELLUNO"},{"name":"Taibon Agordino","zone":2,"latitude":46.302037,"longitude":12.0107962,"province":"BELLUNO"},{"name":"Tambre","zone":3,"latitude":46.1273703,"longitude":12.4204814,"province":"BELLUNO"},{"name":"Trichiana","zone":3,"latitude":46.0741224,"longitude":12.1331794,"province":"BELLUNO"},{"name":"Vallada Agordina","zone":2,"latitude":46.3632397,"longitude":11.934675,"province":"BELLUNO"},{"name":"Valle di Cadore","zone":1,"latitude":46.4189259,"longitude":12.3356296,"province":"BELLUNO"},{"name":"Vas","zone":3,"latitude":45.9392005,"longitude":11.9357197,"province":"BELLUNO"},{"name":"Vigo di Cadore","zone":1,"latitude":46.4998468,"longitude":12.4720762,"province":"BELLUNO"},{"name":"Vodo Cadore","zone":1,"latitude":46.4184856,"longitude":12.2477962,"province":"BELLUNO"},{"name":"Voltago Agordino","zone":2,"latitude":46.2729814,"longitude":12.0062592,"province":"BELLUNO"},{"name":"Zoldo Alto","zone":2,"latitude":46.375741,"longitude":12.125756,"province":"BELLUNO"},{"name":"Zoppè di Cadore","zone":2,"latitude":46.3880131,"longitude":12.1718612,"province":"BELLUNO"}]