[{"name":"Abano Terme","zone":10,"latitude":45.360542,"longitude":11.7893806,"province":"PADOVA"},{"name":"Agna","zone":13,"latitude":45.1697474,"longitude":11.9604008,"province":"PADOVA"},{"name":"Albignasego","zone":10,"latitude":45.3484444,"longitude":11.8682962,"province":"PADOVA"},{"name":"Anguillara Veneta","zone":13,"latitude":45.1393886,"longitude":11.8890378,"province":"PADOVA"},{"name":"Arquà Petrarca","zone":10,"latitude":45.2700515,"longitude":11.7167922,"province":"PADOVA"},{"name":"Arre","zone":13,"latitude":45.219074,"longitude":11.9253333,"province":"PADOVA"},{"name":"Arzergrande","zone":11,"latitude":45.2737592,"longitude":12.0528333,"province":"PADOVA"},{"name":"Bagnoli di Sopra","zone":13,"latitude":45.1886111,"longitude":11.8859444,"province":"PADOVA"},{"name":"Baone","zone":10,"latitude":45.244537,"longitude":11.6892407,"province":"PADOVA"},{"name":"Barbona","zone":13,"latitude":45.1033706,"longitude":11.7030524,"province":"PADOVA"},{"name":"Battaglia Terme","zone":10,"latitude":45.2881296,"longitude":11.7931296,"province":"PADOVA"},{"name":"Boara Pisani","zone":13,"latitude":45.1067229,"longitude":11.783853,"province":"PADOVA"},{"name":"Borgoricco","zone":10,"latitude":45.5362777,"longitude":11.9422037,"province":"PADOVA"},{"name":"Bovolenta","zone":10,"latitude":45.2720443,"longitude":11.9370378,"province":"PADOVA"},{"name":"Brugine","zone":10,"latitude":45.2975,"longitude":11.9962777,"province":"PADOVA"},{"name":"Cadoneghe","zone":10,"latitude":45.4481543,"longitude":11.9092375,"province":"PADOVA"},{"name":"Campo San Martino","zone":10,"latitude":45.5455848,"longitude":11.8116286,"province":"PADOVA"},{"name":"Campodarsego","zone":10,"latitude":45.5026886,"longitude":11.9075902,"province":"PADOVA"},{"name":"Campodoro","zone":10,"latitude":45.4912592,"longitude":11.7531481,"province":"PADOVA"},{"name":"Camposampiero","zone":10,"latitude":45.5693888,"longitude":11.9364074,"province":"PADOVA"},{"name":"Candiana","zone":13,"latitude":45.222037,"longitude":11.9901666,"province":"PADOVA"},{"name":"Carceri","zone":13,"latitude":45.197037,"longitude":11.6203148,"province":"PADOVA"},{"name":"Carmignano di Brenta","zone":9,"latitude":45.630226,"longitude":11.706972,"province":"PADOVA"},{"name":"Cartura","zone":10,"latitude":45.2693888,"longitude":11.8578148,"province":"PADOVA"},{"name":"Casale di Scodosia","zone":13,"latitude":45.1870555,"longitude":11.4693888,"province":"PADOVA"},{"name":"Casalserugo","zone":10,"latitude":45.3170494,"longitude":11.9132984,"province":"PADOVA"},{"name":"Castelbaldo","zone":13,"latitude":45.1233865,"longitude":11.4592174,"province":"PADOVA"},{"name":"Cervarese Santa Croce","zone":10,"latitude":45.42448,"longitude":11.686824,"province":"PADOVA"},{"name":"Cinto Euganeo","zone":10,"latitude":45.2757962,"longitude":11.6628148,"province":"PADOVA"},{"name":"Cittadella","zone":10,"latitude":45.6488343,"longitude":11.7836356,"province":"PADOVA"},{"name":"Codevigo","zone":11,"latitude":45.2676666,"longitude":12.0997037,"province":"PADOVA"},{"name":"Conselve","zone":13,"latitude":45.2318888,"longitude":11.8748518,"province":"PADOVA"},{"name":"Correzzola","zone":12,"latitude":45.2362777,"longitude":12.0687592,"province":"PADOVA"},{"name":"Curtarolo","zone":10,"latitude":45.522833,"longitude":11.832399,"province":"PADOVA"},{"name":"Due Carrare","zone":10,"latitude":45.2935978,"longitude":11.8191407,"province":"PADOVA"},{"name":"Este","zone":13,"latitude":45.2276375,"longitude":11.6565594,"province":"PADOVA"},{"name":"Fontaniva","zone":10,"latitude":45.6350185,"longitude":11.7497037,"province":"PADOVA"},{"name":"Galliera Veneta","zone":10,"latitude":45.664002,"longitude":11.830471,"province":"PADOVA"},{"name":"Galzignano Terme","zone":10,"latitude":45.3074851,"longitude":11.7314141,"province":"PADOVA"},{"name":"Gazzo","zone":9,"latitude":45.581574,"longitude":11.7053333,"province":"PADOVA"},{"name":"Grantorto","zone":10,"latitude":45.6018888,"longitude":11.7326666,"province":"PADOVA"},{"name":"Granze","zone":13,"latitude":45.1575185,"longitude":11.7157962,"province":"PADOVA"},{"name":"Legnaro","zone":10,"latitude":45.3423299,"longitude":11.966176,"province":"PADOVA"},{"name":"Limena","zone":10,"latitude":45.4732962,"longitude":11.8448703,"province":"PADOVA"},{"name":"Loreggia","zone":10,"latitude":45.595,"longitude":11.9462777,"province":"PADOVA"},{"name":"Lozzo Atestino","zone":10,"latitude":45.287026,"longitude":11.627716,"province":"PADOVA"},{"name":"Maserà di Padova","zone":10,"latitude":45.320228,"longitude":11.8641901,"province":"PADOVA"},{"name":"Masi","zone":13,"latitude":45.1098518,"longitude":11.4903333,"province":"PADOVA"},{"name":"Massanzago","zone":10,"latitude":45.5573703,"longitude":12.0084629,"province":"PADOVA"},{"name":"Megliadino San Fidenzio","zone":13,"latitude":45.2184629,"longitude":11.517037,"province":"PADOVA"},{"name":"Megliadino San Vitale","zone":13,"latitude":45.1975185,"longitude":11.527037,"province":"PADOVA"},{"name":"Merlara","zone":13,"latitude":45.1673518,"longitude":11.4423518,"province":"PADOVA"},{"name":"Mestrino","zone":10,"latitude":45.4418888,"longitude":11.761574,"province":"PADOVA"},{"name":"Monselice","zone":10,"latitude":45.2395286,"longitude":11.7503996,"province":"PADOVA"},{"name":"Montagnana","zone":13,"latitude":45.2336096,"longitude":11.4672416,"province":"PADOVA"},{"name":"Montegrotto Terme","zone":10,"latitude":45.3318641,"longitude":11.7837949,"province":"PADOVA"},{"name":"Noventa Padovana","zone":10,"latitude":45.4153333,"longitude":11.952037,"province":"PADOVA"},{"name":"Ospedaletto Euganeo","zone":13,"latitude":45.223188,"longitude":11.611146,"province":"PADOVA"},{"name":"Padova","zone":10,"latitude":45.4095683,"longitude":11.8765886,"province":"PADOVA"},{"name":"Pernumia","zone":10,"latitude":45.2584268,"longitude":11.7889653,"province":"PADOVA"},{"name":"Piacenza d\u0027Adige","zone":13,"latitude":45.1296696,"longitude":11.5503639,"province":"PADOVA"},{"name":"Piazzola sul Brenta","zone":10,"latitude":45.5419832,"longitude":11.786335,"province":"PADOVA"},{"name":"Piombino Dese","zone":6,"latitude":45.6067222,"longitude":11.9979814,"province":"PADOVA"},{"name":"Piove di Sacco","zone":11,"latitude":45.2961677,"longitude":12.034827,"province":"PADOVA"},{"name":"Polverara","zone":10,"latitude":45.3103148,"longitude":11.957037,"province":"PADOVA"},{"name":"Ponso","zone":13,"latitude":45.1926194,"longitude":11.5870697,"province":"PADOVA"},{"name":"Ponte San Nicolò","zone":10,"latitude":45.3639863,"longitude":11.9363944,"province":"PADOVA"},{"name":"Pontelongo","zone":10,"latitude":45.2481481,"longitude":12.0257962,"province":"PADOVA"},{"name":"Pozzonovo","zone":13,"latitude":45.1973703,"longitude":11.7928333,"province":"PADOVA"},{"name":"Rovolon","zone":10,"latitude":45.3653936,"longitude":11.6623252,"province":"PADOVA"},{"name":"Rubano","zone":10,"latitude":45.4218888,"longitude":11.8082962,"province":"PADOVA"},{"name":"Saccolongo","zone":10,"latitude":45.403815,"longitude":11.74714,"province":"PADOVA"},{"name":"Saletto","zone":13,"latitude":45.226028,"longitude":11.532773,"province":"PADOVA"},{"name":"San Giorgio delle Pertiche","zone":10,"latitude":45.540939,"longitude":11.909437,"province":"PADOVA"},{"name":"San Giorgio in Bosco","zone":10,"latitude":45.59063,"longitude":11.806621,"province":"PADOVA"},{"name":"San Martino di Lupari","zone":10,"latitude":45.6507462,"longitude":11.8537002,"province":"PADOVA"},{"name":"San Pietro Viminario","zone":10,"latitude":45.2443888,"longitude":11.8173518,"province":"PADOVA"},{"name":"San Pietro in Gu","zone":9,"latitude":45.611626,"longitude":11.672566,"province":"PADOVA"},{"name":"Sant\u0027Elena","zone":13,"latitude":45.1872037,"longitude":11.7128148,"province":"PADOVA"},{"name":"Sant\u0027Urbano","zone":13,"latitude":45.1281426,"longitude":11.6478056,"province":"PADOVA"},{"name":"Santa Giustina in Colle","zone":10,"latitude":45.5632826,"longitude":11.9066793,"province":"PADOVA"},{"name":"Santa Margherita d\u0027Adige","zone":13,"latitude":45.213406,"longitude":11.5553586,"province":"PADOVA"},{"name":"Sant\u0027Angelo di Piove di Sacco","zone":10,"latitude":45.347501,"longitude":12.002186,"province":"PADOVA"},{"name":"Saonara","zone":10,"latitude":45.3662592,"longitude":11.9859629,"province":"PADOVA"},{"name":"Selvazzano Dentro","zone":10,"latitude":45.3893676,"longitude":11.7894607,"province":"PADOVA"},{"name":"Solesino","zone":13,"latitude":45.178717,"longitude":11.74381,"province":"PADOVA"},{"name":"Stanghella","zone":13,"latitude":45.135311,"longitude":11.757446,"province":"PADOVA"},{"name":"Teolo","zone":10,"latitude":45.3485285,"longitude":11.6722939,"province":"PADOVA"},{"name":"Terrassa Padovana","zone":10,"latitude":45.245,"longitude":11.9037592,"province":"PADOVA"},{"name":"Tombolo","zone":10,"latitude":45.645468,"longitude":11.8273309,"province":"PADOVA"},{"name":"Torreglia","zone":10,"latitude":45.33541,"longitude":11.731925,"province":"PADOVA"},{"name":"Trebaseleghe","zone":6,"latitude":45.5909617,"longitude":12.0506298,"province":"PADOVA"},{"name":"Tribano","zone":13,"latitude":45.208832,"longitude":11.831091,"province":"PADOVA"},{"name":"Urbana","zone":13,"latitude":45.1937592,"longitude":11.4459444,"province":"PADOVA"},{"name":"Veggiano","zone":10,"latitude":45.4481296,"longitude":11.7139259,"province":"PADOVA"},{"name":"Vescovana","zone":13,"latitude":45.136319,"longitude":11.710785,"province":"PADOVA"},{"name":"Vighizzolo d\u0027Este","zone":13,"latitude":45.1773703,"longitude":11.6257962,"province":"PADOVA"},{"name":"Vigodarzere","zone":10,"latitude":45.4605183,"longitude":11.8792907,"province":"PADOVA"},{"name":"Vigonza","zone":10,"latitude":45.431547,"longitude":11.96704,"province":"PADOVA"},{"name":"Villa Estense","zone":13,"latitude":45.1725839,"longitude":11.6675286,"province":"PADOVA"},{"name":"Villa del Conte","zone":10,"latitude":45.583524,"longitude":11.860396,"province":"PADOVA"},{"name":"Villafranca Padovana","zone":10,"latitude":45.4928148,"longitude":11.794537,"province":"PADOVA"},{"name":"Villanova di Camposampiero","zone":10,"latitude":45.4906233,"longitude":11.9705166,"province":"PADOVA"},{"name":"Vò","zone":10,"latitude":45.3292222,"longitude":11.6425,"province":"PADOVA"}]