[{"name":"Altivole","zone":6,"latitude":45.7547037,"longitude":11.9573703,"province":"TREVISO"},{"name":"Arcade","zone":6,"latitude":45.784537,"longitude":12.2228333,"province":"TREVISO"},{"name":"Asolo","zone":5,"latitude":45.7932962,"longitude":11.9128333,"province":"TREVISO"},{"name":"Borso del Grappa","zone":5,"latitude":45.82077,"longitude":11.796086,"province":"TREVISO"},{"name":"Breda di Piave","zone":6,"latitude":45.7248518,"longitude":12.3337777,"province":"TREVISO"},{"name":"Caerano di San Marco","zone":5,"latitude":45.7862777,"longitude":12.0039259,"province":"TREVISO"},{"name":"Cappella Maggiore","zone":5,"latitude":45.9781296,"longitude":12.3423518,"province":"TREVISO"},{"name":"Carbonera","zone":6,"latitude":45.684537,"longitude":12.2854814,"province":"TREVISO"},{"name":"Casale sul Sile","zone":6,"latitude":45.5989259,"longitude":12.3243888,"province":"TREVISO"},{"name":"Casier","zone":6,"latitude":45.64388,"longitude":12.2957627,"province":"TREVISO"},{"name":"Castelcucco","zone":5,"latitude":45.8317407,"longitude":11.8853333,"province":"TREVISO"},{"name":"Castelfranco Veneto","zone":6,"latitude":45.6713166,"longitude":11.9262274,"province":"TREVISO"},{"name":"Castello di Godego","zone":6,"latitude":45.6943888,"longitude":11.8779814,"province":"TREVISO"},{"name":"Cavaso del Tomba","zone":5,"latitude":45.8617407,"longitude":11.8995555,"province":"TREVISO"},{"name":"Cessalto","zone":6,"latitude":45.714074,"longitude":12.6154814,"province":"TREVISO"},{"name":"Chiarano","zone":6,"latitude":45.73,"longitude":12.5837592,"province":"TREVISO"},{"name":"Cimadolmo","zone":6,"latitude":45.7845626,"longitude":12.3640065,"province":"TREVISO"},{"name":"Cison di Valmarino","zone":5,"latitude":45.9673703,"longitude":12.1442407,"province":"TREVISO"},{"name":"Codognè","zone":6,"latitude":45.8702109,"longitude":12.4308257,"province":"TREVISO"},{"name":"Colle Umberto","zone":5,"latitude":45.9399657,"longitude":12.3399807,"province":"TREVISO"},{"name":"Conegliano","zone":5,"latitude":45.8881481,"longitude":12.3050185,"province":"TREVISO"},{"name":"Cordignano","zone":5,"latitude":45.9528333,"longitude":12.4148703,"province":"TREVISO"},{"name":"Cornuda","zone":5,"latitude":45.8317846,"longitude":12.0080604,"province":"TREVISO"},{"name":"Crespano del Grappa","zone":5,"latitude":45.8264259,"longitude":11.8348703,"province":"TREVISO"},{"name":"Crocetta del Montello","zone":5,"latitude":45.825576,"longitude":12.035615,"province":"TREVISO"},{"name":"Farra di Soligo","zone":5,"latitude":45.896331,"longitude":12.094193,"province":"TREVISO"},{"name":"Follina","zone":5,"latitude":45.9525,"longitude":12.1206296,"province":"TREVISO"},{"name":"Fontanelle","zone":6,"latitude":45.8370555,"longitude":12.4653333,"province":"TREVISO"},{"name":"Fonte","zone":5,"latitude":45.784921,"longitude":11.872449,"province":"TREVISO"},{"name":"Fregona","zone":5,"latitude":46.0043888,"longitude":12.3412777,"province":"TREVISO"},{"name":"Gaiarine","zone":6,"latitude":45.879537,"longitude":12.4809629,"province":"TREVISO"},{"name":"Giavera del Montello","zone":5,"latitude":45.7948518,"longitude":12.169537,"province":"TREVISO"},{"name":"Godega di Sant\u0027Urbano","zone":5,"latitude":45.9307962,"longitude":12.3992222,"province":"TREVISO"},{"name":"Gorgo al Monticano","zone":6,"latitude":45.7885424,"longitude":12.5523691,"province":"TREVISO"},{"name":"Istrana","zone":6,"latitude":45.6778333,"longitude":12.1042407,"province":"TREVISO"},{"name":"Loria","zone":6,"latitude":45.7309444,"longitude":11.8664074,"province":"TREVISO"},{"name":"Mansuè","zone":6,"latitude":45.8232096,"longitude":12.53547,"province":"TREVISO"},{"name":"Mareno di Piave","zone":6,"latitude":45.840879,"longitude":12.35071,"province":"TREVISO"},{"name":"Maser","zone":5,"latitude":45.8084629,"longitude":11.9761111,"province":"TREVISO"},{"name":"Maserada sul Piave","zone":6,"latitude":45.749912,"longitude":12.320028,"province":"TREVISO"},{"name":"Meduna di Livenza","zone":6,"latitude":45.8068888,"longitude":12.6148518,"province":"TREVISO"},{"name":"Miane","zone":5,"latitude":45.9454624,"longitude":12.096527,"province":"TREVISO"},{"name":"Mogliano Veneto","zone":6,"latitude":45.5613413,"longitude":12.2363309,"province":"TREVISO"},{"name":"Monastier di Treviso","zone":6,"latitude":45.650872,"longitude":12.435401,"province":"TREVISO"},{"name":"Monfumo","zone":5,"latitude":45.8310911,"longitude":11.9202637,"province":"TREVISO"},{"name":"Montebelluna","zone":5,"latitude":45.777547,"longitude":12.0464467,"province":"TREVISO"},{"name":"Morgano","zone":6,"latitude":45.6481871,"longitude":12.1033133,"province":"TREVISO"},{"name":"Moriago della Battaglia","zone":5,"latitude":45.8710423,"longitude":12.0787482,"province":"TREVISO"},{"name":"Motta di Livenza","zone":6,"latitude":45.7775,"longitude":12.6087592,"province":"TREVISO"},{"name":"Nervesa della Battaglia","zone":5,"latitude":45.8231296,"longitude":12.2059444,"province":"TREVISO"},{"name":"Oderzo","zone":6,"latitude":45.7812715,"longitude":12.493628,"province":"TREVISO"},{"name":"Ormelle","zone":6,"latitude":45.7803333,"longitude":12.4231481,"province":"TREVISO"},{"name":"Orsago","zone":5,"latitude":45.930672,"longitude":12.423573,"province":"TREVISO"},{"name":"Paderno del Grappa","zone":5,"latitude":45.8294031,"longitude":11.8596419,"province":"TREVISO"},{"name":"Paese","zone":6,"latitude":45.6776252,"longitude":12.1563908,"province":"TREVISO"},{"name":"Pederobba","zone":5,"latitude":45.877998,"longitude":11.954953,"province":"TREVISO"},{"name":"Pieve di Soligo","zone":5,"latitude":45.900022,"longitude":12.171471,"province":"TREVISO"},{"name":"Ponte di Piave","zone":6,"latitude":45.714745,"longitude":12.464508,"province":"TREVISO"},{"name":"Ponzano Veneto","zone":6,"latitude":45.715701,"longitude":12.2026929,"province":"TREVISO"},{"name":"Portobuffolè","zone":6,"latitude":45.8562355,"longitude":12.5377327,"province":"TREVISO"},{"name":"Possagno","zone":5,"latitude":45.8534444,"longitude":11.8742407,"province":"TREVISO"},{"name":"Povegliano","zone":6,"latitude":45.761094,"longitude":12.2037683,"province":"TREVISO"},{"name":"Preganziol","zone":6,"latitude":45.6022462,"longitude":12.2351883,"province":"TREVISO"},{"name":"Quinto di Treviso","zone":6,"latitude":45.646012,"longitude":12.167235,"province":"TREVISO"},{"name":"Refrontolo","zone":5,"latitude":45.9250185,"longitude":12.2100185,"province":"TREVISO"},{"name":"Resana","zone":6,"latitude":45.633612,"longitude":11.955503,"province":"TREVISO"},{"name":"Revine Lago","zone":5,"latitude":45.9914259,"longitude":12.2287592,"province":"TREVISO"},{"name":"Riese Pio X","zone":6,"latitude":45.7300185,"longitude":11.92,"province":"TREVISO"},{"name":"Roncade","zone":6,"latitude":45.6280609,"longitude":12.374799,"province":"TREVISO"},{"name":"Salgareda","zone":6,"latitude":45.704485,"longitude":12.492175,"province":"TREVISO"},{"name":"San Biagio di Callalta","zone":6,"latitude":45.6854522,"longitude":12.377217,"province":"TREVISO"},{"name":"San Fior","zone":5,"latitude":45.920953,"longitude":12.357412,"province":"TREVISO"},{"name":"San Pietro di Feletto","zone":5,"latitude":45.9163513,"longitude":12.2507734,"province":"TREVISO"},{"name":"San Polo di Piave","zone":6,"latitude":45.7925185,"longitude":12.3943888,"province":"TREVISO"},{"name":"San Vendemiano","zone":5,"latitude":45.8867406,"longitude":12.3516602,"province":"TREVISO"},{"name":"San Zenone degli Ezzelini","zone":5,"latitude":45.7814259,"longitude":11.8382962,"province":"TREVISO"},{"name":"Santa Lucia di Piave","zone":6,"latitude":45.845059,"longitude":12.280807,"province":"TREVISO"},{"name":"Sarmede","zone":5,"latitude":45.9776666,"longitude":12.3853333,"province":"TREVISO"},{"name":"Segusino","zone":5,"latitude":45.9179814,"longitude":11.9567407,"province":"TREVISO"},{"name":"Sernaglia della Battaglia","zone":5,"latitude":45.8754964,"longitude":12.1316081,"province":"TREVISO"},{"name":"Silea","zone":6,"latitude":45.654671,"longitude":12.296841,"province":"TREVISO"},{"name":"Spresiano","zone":6,"latitude":45.779459,"longitude":12.256104,"province":"TREVISO"},{"name":"Susegana","zone":5,"latitude":45.851956,"longitude":12.2507649,"province":"TREVISO"},{"name":"Treviso","zone":6,"latitude":45.6662855,"longitude":12.242072,"province":"TREVISO"},{"name":"Tarzo","zone":5,"latitude":45.9728333,"longitude":12.234074,"province":"TREVISO"},{"name":"Trevignano","zone":6,"latitude":45.7433793,"longitude":12.0927416,"province":"TREVISO"},{"name":"Valdobbiadene","zone":5,"latitude":45.9013332,"longitude":11.9954402,"province":"TREVISO"},{"name":"Vazzola","zone":6,"latitude":45.8427961,"longitude":12.3843074,"province":"TREVISO"},{"name":"Vedelago","zone":6,"latitude":45.686604,"longitude":12.017904,"province":"TREVISO"},{"name":"Vidor","zone":5,"latitude":45.8615074,"longitude":12.0387297,"province":"TREVISO"},{"name":"Villorba","zone":6,"latitude":45.713668,"longitude":12.2600845,"province":"TREVISO"},{"name":"Vittorio Veneto","zone":5,"latitude":45.9798115,"longitude":12.3033131,"province":"TREVISO"},{"name":"Volpago del Montello","zone":5,"latitude":45.7782962,"longitude":12.1154814,"province":"TREVISO"},{"name":"Zenson di Piave","zone":6,"latitude":45.678236,"longitude":12.489549,"province":"TREVISO"},{"name":"Zero Branco","zone":6,"latitude":45.6026666,"longitude":12.1662592,"province":"TREVISO"}]