[{"name":"Annone Veneto","zone":7,"latitude":45.794099,"longitude":12.683527,"province":"VENEZIA"},{"name":"Campagna Lupia","zone":11,"latitude":45.355824,"longitude":12.096281,"province":"VENEZIA"},{"name":"Campolongo Maggiore","zone":11,"latitude":45.322842,"longitude":12.0450839,"province":"VENEZIA"},{"name":"Camponogara","zone":11,"latitude":45.383409,"longitude":12.072398,"province":"VENEZIA"},{"name":"Caorle-Litorale","zone":16,"latitude":0.0,"longitude":0.0,"province":"VENEZIA"},{"name":"Caorle","zone":7,"latitude":45.5948518,"longitude":12.8707962,"province":"VENEZIA"},{"name":"Cavallino Treporti","zone":17,"latitude":40.3136111,"longitude":18.2012592,"province":"VENEZIA"},{"name":"Cavarzere","zone":12,"latitude":45.1345079,"longitude":12.0808623,"province":"VENEZIA"},{"name":"Ceggia","zone":7,"latitude":45.6864259,"longitude":12.6392407,"province":"VENEZIA"},{"name":"Chioggia-Litorale","zone":18,"latitude":0.0,"longitude":0.0,"province":"VENEZIA"},{"name":"Chioggia","zone":12,"latitude":45.2170993,"longitude":12.2788154,"province":"VENEZIA"},{"name":"Cinto Caomaggiore","zone":7,"latitude":45.8300185,"longitude":12.7836111,"province":"VENEZIA"},{"name":"Cona","zone":12,"latitude":45.1858744,"longitude":12.0194535,"province":"VENEZIA"},{"name":"Concordia Sagittaria","zone":7,"latitude":45.756918,"longitude":12.844317,"province":"VENEZIA"},{"name":"Dolo","zone":11,"latitude":45.4261815,"longitude":12.0744548,"province":"VENEZIA"},{"name":"Eraclea-Litorale","zone":16,"latitude":0.0,"longitude":0.0,"province":"VENEZIA"},{"name":"Eraclea","zone":7,"latitude":45.5785804,"longitude":12.6781041,"province":"VENEZIA"},{"name":"Fiesso d\u0027Artico","zone":10,"latitude":45.4175,"longitude":12.0347037,"province":"VENEZIA"},{"name":"Fossalta di Piave","zone":7,"latitude":45.643968,"longitude":12.511848,"province":"VENEZIA"},{"name":"Fossalta di Portogruaro","zone":7,"latitude":45.792377,"longitude":12.908636,"province":"VENEZIA"},{"name":"Fossò","zone":10,"latitude":45.3862777,"longitude":12.0504814,"province":"VENEZIA"},{"name":"Gruaro","zone":7,"latitude":45.8326666,"longitude":12.8461111,"province":"VENEZIA"},{"name":"Jesolo","zone":17,"latitude":45.5365852,"longitude":12.6393309,"province":"VENEZIA"},{"name":"Marcon","zone":11,"latitude":45.5615912,"longitude":12.2981034,"province":"VENEZIA"},{"name":"Martellago","zone":11,"latitude":45.5460521,"longitude":12.1602063,"province":"VENEZIA"},{"name":"Meolo","zone":11,"latitude":45.620197,"longitude":12.452579,"province":"VENEZIA"},{"name":"Mira","zone":11,"latitude":45.4368092,"longitude":12.1312599,"province":"VENEZIA"},{"name":"Mirano","zone":11,"latitude":45.4922312,"longitude":12.1082797,"province":"VENEZIA"},{"name":"Musile di Piave","zone":11,"latitude":45.6178148,"longitude":12.565,"province":"VENEZIA"},{"name":"Noale","zone":6,"latitude":45.5504814,"longitude":12.0722037,"province":"VENEZIA"},{"name":"Noventa di Piave","zone":7,"latitude":45.6607962,"longitude":12.5347037,"province":"VENEZIA"},{"name":"Pianiga","zone":10,"latitude":45.456129,"longitude":12.030934,"province":"VENEZIA"},{"name":"Portogruaro","zone":7,"latitude":45.7750301,"longitude":12.8378287,"province":"VENEZIA"},{"name":"Pramaggiore","zone":7,"latitude":45.8153148,"longitude":12.7372037,"province":"VENEZIA"},{"name":"Quarto d\u0027Altino","zone":11,"latitude":45.5787777,"longitude":12.3728333,"province":"VENEZIA"},{"name":"Salzano","zone":11,"latitude":45.520931,"longitude":12.1056333,"province":"VENEZIA"},{"name":"San Donà di Piave","zone":7,"latitude":45.6319754,"longitude":12.5662747,"province":"VENEZIA"},{"name":"San Michele al T.-Bibione","zone":16,"latitude":0.0,"longitude":0.0,"province":"VENEZIA"},{"name":"San Michele al Tagliamento","zone":7,"latitude":45.7641516,"longitude":12.9949504,"province":"VENEZIA"},{"name":"Santa Maria di Sala","zone":10,"latitude":45.5044042,"longitude":12.0350483,"province":"VENEZIA"},{"name":"Santo Stino di Livenza","zone":7,"latitude":45.7315843,"longitude":12.6836963,"province":"VENEZIA"},{"name":"Scorzè","zone":6,"latitude":45.5713997,"longitude":12.107987,"province":"VENEZIA"},{"name":"Spinea","zone":11,"latitude":45.4903518,"longitude":12.1681244,"province":"VENEZIA"},{"name":"Stra","zone":10,"latitude":45.406167,"longitude":12.015217,"province":"VENEZIA"},{"name":"Teglio Veneto","zone":7,"latitude":45.815401,"longitude":12.884605,"province":"VENEZIA"},{"name":"Torre di Mosto","zone":7,"latitude":45.6861111,"longitude":12.7039074,"province":"VENEZIA"},{"name":"Venezia","zone":11,"latitude":45.4343363,"longitude":12.3387844,"province":"VENEZIA"},{"name":"Venezia lido-Pellestrina","zone":17,"latitude":0.0,"longitude":0.0,"province":"VENEZIA"},{"name":"Vigonovo","zone":10,"latitude":45.3893895,"longitude":12.0062515,"province":"VENEZIA"}]