[{"name":"Affi","zone":15,"latitude":45.5529314,"longitude":10.7787311,"province":"VERONA"},{"name":"Albaredo d\u0027Adige","zone":14,"latitude":45.317903,"longitude":11.2753029,"province":"VERONA"},{"name":"Angiari","zone":13,"latitude":45.2237531,"longitude":11.2789613,"province":"VERONA"},{"name":"Arcole","zone":14,"latitude":45.3578333,"longitude":11.2856481,"province":"VERONA"},{"name":"Badia Calavena","zone":8,"latitude":45.5673518,"longitude":11.1537777,"province":"VERONA"},{"name":"Bardolino","zone":15,"latitude":45.547558,"longitude":10.7210038,"province":"VERONA"},{"name":"Belfiore","zone":14,"latitude":45.3832962,"longitude":11.2106481,"province":"VERONA"},{"name":"Bevilacqua","zone":13,"latitude":45.2328333,"longitude":11.3936111,"province":"VERONA"},{"name":"Bonavigo","zone":13,"latitude":45.2606296,"longitude":11.2806296,"province":"VERONA"},{"name":"Boschi Sant\u0027Anna","zone":13,"latitude":45.2187777,"longitude":11.3573703,"province":"VERONA"},{"name":"Bosco Chiesanuova","zone":8,"latitude":45.6198464,"longitude":11.0351478,"province":"VERONA"},{"name":"Bovolone","zone":14,"latitude":45.2581467,"longitude":11.1200476,"province":"VERONA"},{"name":"Brentino Belluno","zone":8,"latitude":45.6583447,"longitude":10.8942082,"province":"VERONA"},{"name":"Brenzone","zone":15,"latitude":45.7009629,"longitude":10.7617407,"province":"VERONA"},{"name":"Bussolengo","zone":14,"latitude":45.4745577,"longitude":10.8464106,"province":"VERONA"},{"name":"Buttapietra","zone":14,"latitude":45.3437777,"longitude":11.0022037,"province":"VERONA"},{"name":"Caldiero","zone":14,"latitude":45.4153148,"longitude":11.1784444,"province":"VERONA"},{"name":"Caprino Veronese","zone":15,"latitude":45.6059629,"longitude":10.7962592,"province":"VERONA"},{"name":"Casaleone","zone":13,"latitude":45.173007,"longitude":11.195315,"province":"VERONA"},{"name":"Castagnaro","zone":13,"latitude":45.1204356,"longitude":11.4109385,"province":"VERONA"},{"name":"Castel d\u0027Azzano","zone":14,"latitude":45.3568888,"longitude":10.954074,"province":"VERONA"},{"name":"Castelnuovo del Garda","zone":15,"latitude":45.4396447,"longitude":10.7640751,"province":"VERONA"},{"name":"Cavaion Veronese","zone":15,"latitude":45.539874,"longitude":10.769303,"province":"VERONA"},{"name":"Cazzano di Tramigna","zone":14,"latitude":45.473996,"longitude":11.203152,"province":"VERONA"},{"name":"Cerea","zone":13,"latitude":45.1926936,"longitude":11.2127086,"province":"VERONA"},{"name":"Cerro Veronese","zone":8,"latitude":45.5754489,"longitude":11.0426787,"province":"VERONA"},{"name":"Cologna Veneta","zone":14,"latitude":45.3112592,"longitude":11.3854814,"province":"VERONA"},{"name":"Colognola ai Colli","zone":14,"latitude":45.4347037,"longitude":11.1853148,"province":"VERONA"},{"name":"Concamarise","zone":13,"latitude":45.207576,"longitude":11.138329,"province":"VERONA"},{"name":"Costermano","zone":15,"latitude":45.5870638,"longitude":10.7393507,"province":"VERONA"},{"name":"Dolcè","zone":14,"latitude":45.6017407,"longitude":10.8536111,"province":"VERONA"},{"name":"Erbezzo","zone":8,"latitude":45.6414074,"longitude":11.0017222,"province":"VERONA"},{"name":"Erbè","zone":14,"latitude":45.2425185,"longitude":10.9703333,"province":"VERONA"},{"name":"Ferrara di Monte Baldo","zone":15,"latitude":45.6739438,"longitude":10.8609907,"province":"VERONA"},{"name":"Fumane","zone":8,"latitude":45.540603,"longitude":10.88576,"province":"VERONA"},{"name":"Garda","zone":15,"latitude":45.5746483,"longitude":10.7077081,"province":"VERONA"},{"name":"Gazzo Veronese","zone":13,"latitude":45.1413422,"longitude":11.0775332,"province":"VERONA"},{"name":"Grezzana","zone":14,"latitude":45.519811,"longitude":11.017175,"province":"VERONA"},{"name":"Illasi","zone":14,"latitude":45.4681296,"longitude":11.1834444,"province":"VERONA"},{"name":"Isola Rizza","zone":14,"latitude":45.2932962,"longitude":11.2,"province":"VERONA"},{"name":"Isola della Scala","zone":14,"latitude":45.2735549,"longitude":11.0088337,"province":"VERONA"},{"name":"Lavagno","zone":14,"latitude":45.4397037,"longitude":11.1351666,"province":"VERONA"},{"name":"Lazise","zone":15,"latitude":45.5052821,"longitude":10.7325905,"province":"VERONA"},{"name":"Legnago","zone":13,"latitude":45.190698,"longitude":11.3076361,"province":"VERONA"},{"name":"Malcesine","zone":15,"latitude":45.7647037,"longitude":10.8120555,"province":"VERONA"},{"name":"Marano di Valpolicella","zone":14,"latitude":45.556093,"longitude":10.915437,"province":"VERONA"},{"name":"Mezzane di Sotto","zone":14,"latitude":45.482329,"longitude":11.1289612,"province":"VERONA"},{"name":"Minerbe","zone":13,"latitude":45.242037,"longitude":11.3359629,"province":"VERONA"},{"name":"Montecchia di Crosara","zone":14,"latitude":45.4854814,"longitude":11.2554814,"province":"VERONA"},{"name":"Monteforte d\u0027Alpone","zone":14,"latitude":45.4182962,"longitude":11.2848703,"province":"VERONA"},{"name":"Mozzecane","zone":14,"latitude":45.3084444,"longitude":10.8198703,"province":"VERONA"},{"name":"Negrar","zone":14,"latitude":45.5306253,"longitude":10.9383009,"province":"VERONA"},{"name":"Nogara","zone":13,"latitude":45.174074,"longitude":11.0668888,"province":"VERONA"},{"name":"Nogarole Rocca","zone":14,"latitude":45.2928148,"longitude":10.8848518,"province":"VERONA"},{"name":"Oppeano","zone":14,"latitude":45.3056481,"longitude":11.1806296,"province":"VERONA"},{"name":"Palù","zone":14,"latitude":45.3264074,"longitude":11.1564259,"province":"VERONA"},{"name":"Pastrengo","zone":15,"latitude":45.494074,"longitude":10.8009629,"province":"VERONA"},{"name":"Pescantina","zone":14,"latitude":45.4827249,"longitude":10.8675485,"province":"VERONA"},{"name":"Peschiera del Garda","zone":15,"latitude":45.4393871,"longitude":10.6920548,"province":"VERONA"},{"name":"Povegliano Veronese","zone":14,"latitude":45.3504814,"longitude":10.8822037,"province":"VERONA"},{"name":"Pressana","zone":13,"latitude":45.2854302,"longitude":11.4051234,"province":"VERONA"},{"name":"Rivoli Veronese","zone":15,"latitude":45.5715613,"longitude":10.8119287,"province":"VERONA"},{"name":"Ronco all\u0027Adige","zone":14,"latitude":45.3376666,"longitude":11.244074,"province":"VERONA"},{"name":"Roncà","zone":14,"latitude":45.479073,"longitude":11.289127,"province":"VERONA"},{"name":"Roverchiara","zone":14,"latitude":45.2685019,"longitude":11.2449547,"province":"VERONA"},{"name":"Roveredo di Guà","zone":13,"latitude":45.274074,"longitude":11.4453333,"province":"VERONA"},{"name":"Roverè Veronese","zone":8,"latitude":45.592046,"longitude":11.0695113,"province":"VERONA"},{"name":"Salizzole","zone":14,"latitude":45.242795,"longitude":11.088213,"province":"VERONA"},{"name":"San Bonifacio","zone":14,"latitude":45.3962331,"longitude":11.2702317,"province":"VERONA"},{"name":"San Giovanni Ilarione","zone":8,"latitude":45.521574,"longitude":11.2373703,"province":"VERONA"},{"name":"San Giovanni Lupatoto","zone":14,"latitude":45.383916,"longitude":11.042271,"province":"VERONA"},{"name":"San Martino Buon Albergo","zone":14,"latitude":45.4222409,"longitude":11.0933924,"province":"VERONA"},{"name":"San Mauro di Saline","zone":8,"latitude":45.5654546,"longitude":11.1128957,"province":"VERONA"},{"name":"San Pietro di Morubio","zone":14,"latitude":45.2434444,"longitude":11.2281481,"province":"VERONA"},{"name":"San Pietro in Cariano","zone":14,"latitude":45.5212592,"longitude":10.884074,"province":"VERONA"},{"name":"San Zeno di Montagna","zone":15,"latitude":45.6384444,"longitude":10.7332962,"province":"VERONA"},{"name":"Sanguinetto","zone":13,"latitude":45.1848699,"longitude":11.15051,"province":"VERONA"},{"name":"Sant\u0027Ambrogio di Valpolicella","zone":14,"latitude":45.5218888,"longitude":10.8373703,"province":"VERONA"},{"name":"Sant\u0027Anna d\u0027Alfaedo","zone":8,"latitude":45.6275143,"longitude":10.9515009,"province":"VERONA"},{"name":"Selva di Progno","zone":8,"latitude":45.6123518,"longitude":11.139074,"province":"VERONA"},{"name":"Soave","zone":14,"latitude":45.422037,"longitude":11.2476666,"province":"VERONA"},{"name":"Sommacampagna","zone":14,"latitude":45.4074969,"longitude":10.8410188,"province":"VERONA"},{"name":"Sona","zone":14,"latitude":45.4344795,"longitude":10.8323621,"province":"VERONA"},{"name":"Sorgà","zone":13,"latitude":45.2142222,"longitude":10.9809444,"province":"VERONA"},{"name":"Terrazzo","zone":13,"latitude":45.1742222,"longitude":11.3945555,"province":"VERONA"},{"name":"Torri del Benaco","zone":15,"latitude":45.6098059,"longitude":10.6868823,"province":"VERONA"},{"name":"Tregnago","zone":8,"latitude":45.51452,"longitude":11.164624,"province":"VERONA"},{"name":"Trevenzuolo","zone":14,"latitude":45.2703148,"longitude":10.9354814,"province":"VERONA"},{"name":"Verona","zone":14,"latitude":45.4420061,"longitude":10.995485,"province":"VERONA"},{"name":"Valeggio sul Mincio","zone":15,"latitude":45.3539721,"longitude":10.7364908,"province":"VERONA"},{"name":"Velo Veronese","zone":8,"latitude":45.6076666,"longitude":11.0962592,"province":"VERONA"},{"name":"Veronella","zone":14,"latitude":45.3231335,"longitude":11.3245387,"province":"VERONA"},{"name":"Vestenanova","zone":8,"latitude":45.574537,"longitude":11.229537,"province":"VERONA"},{"name":"Vigasio","zone":14,"latitude":45.3167407,"longitude":10.9412777,"province":"VERONA"},{"name":"Villa Bartolomea","zone":13,"latitude":45.1584708,"longitude":11.3525805,"province":"VERONA"},{"name":"Villafranca di Verona","zone":14,"latitude":45.3506973,"longitude":10.843318,"province":"VERONA"},{"name":"Zevio","zone":14,"latitude":45.3756072,"longitude":11.1371919,"province":"VERONA"},{"name":"Zimella","zone":14,"latitude":45.3656644,"longitude":11.3392991,"province":"VERONA"}]