[{"name":"Agugliaro","zone":9,"latitude":45.3264259,"longitude":11.5853333,"province":"VICENZA"},{"name":"Albettone","zone":9,"latitude":45.3578148,"longitude":11.5828148,"province":"VICENZA"},{"name":"Alonte","zone":9,"latitude":45.3668888,"longitude":11.4281296,"province":"VICENZA"},{"name":"Altavilla Vicentina","zone":9,"latitude":45.511935,"longitude":11.460371,"province":"VICENZA"},{"name":"Altissimo","zone":8,"latitude":45.6153968,"longitude":11.2526787,"province":"VICENZA"},{"name":"Arcugnano","zone":9,"latitude":45.4951612,"longitude":11.5514699,"province":"VICENZA"},{"name":"Arsiero","zone":8,"latitude":45.8039259,"longitude":11.3553333,"province":"VICENZA"},{"name":"Arzignano","zone":9,"latitude":45.5193876,"longitude":11.339584,"province":"VICENZA"},{"name":"Asiago","zone":4,"latitude":45.8761111,"longitude":11.5087777,"province":"VICENZA"},{"name":"Asigliano Veneto","zone":9,"latitude":45.3056296,"longitude":11.4475185,"province":"VICENZA"},{"name":"Barbarano Vicentino","zone":9,"latitude":45.4092849,"longitude":11.542238,"province":"VICENZA"},{"name":"Bassano del Grappa","zone":5,"latitude":45.766608,"longitude":11.7339608,"province":"VICENZA"},{"name":"Bolzano Vicentino","zone":9,"latitude":45.6027979,"longitude":11.623102,"province":"VICENZA"},{"name":"Breganze","zone":9,"latitude":45.7080607,"longitude":11.5647946,"province":"VICENZA"},{"name":"Brendola","zone":9,"latitude":45.4724113,"longitude":11.4461293,"province":"VICENZA"},{"name":"Bressanvido","zone":9,"latitude":45.6442671,"longitude":11.6314917,"province":"VICENZA"},{"name":"Brogliano","zone":8,"latitude":45.5890414,"longitude":11.367053,"province":"VICENZA"},{"name":"Caldogno","zone":9,"latitude":45.6087592,"longitude":11.5039259,"province":"VICENZA"},{"name":"Caltrano","zone":4,"latitude":45.7743815,"longitude":11.4530195,"province":"VICENZA"},{"name":"Calvene","zone":4,"latitude":45.7686559,"longitude":11.5147115,"province":"VICENZA"},{"name":"Camisano Vicentino","zone":9,"latitude":45.518037,"longitude":11.708508,"province":"VICENZA"},{"name":"Campiglia dei Berici","zone":9,"latitude":45.3357962,"longitude":11.5434444,"province":"VICENZA"},{"name":"Campolongo sul Brenta","zone":4,"latitude":45.8281481,"longitude":11.7018888,"province":"VICENZA"},{"name":"Carrè","zone":9,"latitude":45.7498703,"longitude":11.4589259,"province":"VICENZA"},{"name":"Cartigliano","zone":9,"latitude":45.7139074,"longitude":11.6967407,"province":"VICENZA"},{"name":"Cassola","zone":5,"latitude":45.732665,"longitude":11.796291,"province":"VICENZA"},{"name":"Castegnero","zone":9,"latitude":45.4376803,"longitude":11.6011179,"province":"VICENZA"},{"name":"Castelgomberto","zone":9,"latitude":45.5859629,"longitude":11.3967222,"province":"VICENZA"},{"name":"Chiampo","zone":8,"latitude":45.5468888,"longitude":11.2806296,"province":"VICENZA"},{"name":"Chiuppano","zone":5,"latitude":45.7648703,"longitude":11.4628333,"province":"VICENZA"},{"name":"Cismon del Grappa","zone":3,"latitude":45.9204549,"longitude":11.729454,"province":"VICENZA"},{"name":"Cogollo del Cengio","zone":4,"latitude":45.7837957,"longitude":11.4272728,"province":"VICENZA"},{"name":"Conco","zone":4,"latitude":45.8009444,"longitude":11.6081296,"province":"VICENZA"},{"name":"Cornedo Vicentino","zone":8,"latitude":45.614074,"longitude":11.3417407,"province":"VICENZA"},{"name":"Costabissara","zone":9,"latitude":45.584537,"longitude":11.4882962,"province":"VICENZA"},{"name":"Creazzo","zone":9,"latitude":45.531491,"longitude":11.4814139,"province":"VICENZA"},{"name":"Crespadoro","zone":8,"latitude":45.621823,"longitude":11.2262338,"province":"VICENZA"},{"name":"Dueville","zone":9,"latitude":45.6364827,"longitude":11.5493575,"province":"VICENZA"},{"name":"Enego","zone":4,"latitude":45.9425,"longitude":11.706574,"province":"VICENZA"},{"name":"Fara Vicentino","zone":9,"latitude":45.7403354,"longitude":11.5476577,"province":"VICENZA"},{"name":"Foza","zone":4,"latitude":45.896998,"longitude":11.6308576,"province":"VICENZA"},{"name":"Gallio","zone":4,"latitude":45.891426,"longitude":11.542957,"province":"VICENZA"},{"name":"Gambellara","zone":9,"latitude":45.4607962,"longitude":11.3412777,"province":"VICENZA"},{"name":"Gambugliano","zone":9,"latitude":45.5889074,"longitude":11.4397037,"province":"VICENZA"},{"name":"Grancona","zone":9,"latitude":45.4232004,"longitude":11.4528771,"province":"VICENZA"},{"name":"Grisignano di Zocco","zone":9,"latitude":45.4759444,"longitude":11.6993888,"province":"VICENZA"},{"name":"Grumolo delle Abbadesse","zone":9,"latitude":45.5204814,"longitude":11.6593888,"province":"VICENZA"},{"name":"Isola Vicentina","zone":9,"latitude":45.6292339,"longitude":11.44372,"province":"VICENZA"},{"name":"Laghi","zone":8,"latitude":45.824606,"longitude":11.271959,"province":"VICENZA"},{"name":"Lastebasse","zone":8,"latitude":45.915462,"longitude":11.274659,"province":"VICENZA"},{"name":"Longare","zone":9,"latitude":45.4791115,"longitude":11.6085084,"province":"VICENZA"},{"name":"Lonigo","zone":9,"latitude":45.3880142,"longitude":11.3881105,"province":"VICENZA"},{"name":"Lugo di Vicenza","zone":4,"latitude":45.7464074,"longitude":11.5298703,"province":"VICENZA"},{"name":"Lusiana","zone":4,"latitude":45.7853188,"longitude":11.5753777,"province":"VICENZA"},{"name":"Malo","zone":8,"latitude":45.6612592,"longitude":11.4086111,"province":"VICENZA"},{"name":"Marano Vicentino","zone":9,"latitude":45.694074,"longitude":11.4284629,"province":"VICENZA"},{"name":"Marostica","zone":9,"latitude":45.7446009,"longitude":11.6554899,"province":"VICENZA"},{"name":"Mason Vicentino","zone":9,"latitude":45.719537,"longitude":11.6078148,"province":"VICENZA"},{"name":"Molvena","zone":9,"latitude":45.7449453,"longitude":11.614705,"province":"VICENZA"},{"name":"Monte di Malo","zone":8,"latitude":45.6620555,"longitude":11.3623518,"province":"VICENZA"},{"name":"Montebello Vicentino","zone":9,"latitude":45.4575185,"longitude":11.384537,"province":"VICENZA"},{"name":"Montecchio Maggiore","zone":9,"latitude":45.504691,"longitude":11.405833,"province":"VICENZA"},{"name":"Montecchio Precalcino","zone":9,"latitude":45.6667407,"longitude":11.5647037,"province":"VICENZA"},{"name":"Montegalda","zone":9,"latitude":45.4470313,"longitude":11.6761139,"province":"VICENZA"},{"name":"Montegaldella","zone":9,"latitude":45.437037,"longitude":11.6717407,"province":"VICENZA"},{"name":"Monteviale","zone":9,"latitude":45.5614074,"longitude":11.459074,"province":"VICENZA"},{"name":"Monticello Conte Otto","zone":9,"latitude":45.5942609,"longitude":11.5848712,"province":"VICENZA"},{"name":"Montorso Vicentino","zone":9,"latitude":45.4918888,"longitude":11.3612592,"province":"VICENZA"},{"name":"Mossano","zone":9,"latitude":45.4194534,"longitude":11.5556874,"province":"VICENZA"},{"name":"Mussolente","zone":5,"latitude":45.7801666,"longitude":11.8073703,"province":"VICENZA"},{"name":"Nanto","zone":9,"latitude":45.4345797,"longitude":11.5780289,"province":"VICENZA"},{"name":"Nogarole Vicentino","zone":8,"latitude":45.5611045,"longitude":11.2897544,"province":"VICENZA"},{"name":"Nove","zone":9,"latitude":45.7231296,"longitude":11.6787592,"province":"VICENZA"},{"name":"Noventa Vicentina","zone":9,"latitude":45.290568,"longitude":11.540067,"province":"VICENZA"},{"name":"Orgiano","zone":9,"latitude":45.3489259,"longitude":11.4642407,"province":"VICENZA"},{"name":"Pedemonte","zone":4,"latitude":45.9087778,"longitude":11.3071295,"province":"VICENZA"},{"name":"Pianezze","zone":5,"latitude":45.7407962,"longitude":11.6279814,"province":"VICENZA"},{"name":"Piovene Rocchette","zone":4,"latitude":45.7586111,"longitude":11.4359444,"province":"VICENZA"},{"name":"Poiana Maggiore","zone":9,"latitude":45.2914259,"longitude":11.5036111,"province":"VICENZA"},{"name":"Posina","zone":8,"latitude":45.7916795,"longitude":11.2632067,"province":"VICENZA"},{"name":"Pove del Grappa","zone":5,"latitude":45.7992407,"longitude":11.7309444,"province":"VICENZA"},{"name":"Pozzoleone","zone":9,"latitude":45.6489001,"longitude":11.6792475,"province":"VICENZA"},{"name":"Quinto Vicentino","zone":9,"latitude":45.573336,"longitude":11.626879,"province":"VICENZA"},{"name":"Recoaro Terme","zone":8,"latitude":45.7051666,"longitude":11.2256481,"province":"VICENZA"},{"name":"Roana","zone":4,"latitude":45.8759927,"longitude":11.4631317,"province":"VICENZA"},{"name":"Romano d\u0027Ezzelino","zone":5,"latitude":45.7962711,"longitude":11.758312,"province":"VICENZA"},{"name":"Rossano Veneto","zone":9,"latitude":45.7067222,"longitude":11.807037,"province":"VICENZA"},{"name":"Rosà","zone":9,"latitude":45.727668,"longitude":11.763215,"province":"VICENZA"},{"name":"Rotzo","zone":4,"latitude":45.8628148,"longitude":11.3973703,"province":"VICENZA"},{"name":"Salcedo","zone":4,"latitude":45.7578827,"longitude":11.5682402,"province":"VICENZA"},{"name":"San Germano dei Berici","zone":9,"latitude":45.4020182,"longitude":11.4706939,"province":"VICENZA"},{"name":"San Nazario","zone":4,"latitude":45.8404814,"longitude":11.6906296,"province":"VICENZA"},{"name":"San Pietro Mussolino","zone":8,"latitude":45.5864074,"longitude":11.2597037,"province":"VICENZA"},{"name":"San Vito di Leguzzano","zone":8,"latitude":45.689311,"longitude":11.3737722,"province":"VICENZA"},{"name":"Sandrigo","zone":9,"latitude":45.6606657,"longitude":11.6031127,"province":"VICENZA"},{"name":"Santorso","zone":8,"latitude":45.7361111,"longitude":11.3928148,"province":"VICENZA"},{"name":"Sarcedo","zone":9,"latitude":45.702776,"longitude":11.5304227,"province":"VICENZA"},{"name":"Sarego","zone":9,"latitude":45.4074536,"longitude":11.4050722,"province":"VICENZA"},{"name":"Schiavon","zone":9,"latitude":45.6973703,"longitude":11.6461111,"province":"VICENZA"},{"name":"Schio","zone":8,"latitude":45.7134629,"longitude":11.3584444,"province":"VICENZA"},{"name":"Solagna","zone":4,"latitude":45.8201666,"longitude":11.7164074,"province":"VICENZA"},{"name":"Sossano","zone":9,"latitude":45.3612592,"longitude":11.5131481,"province":"VICENZA"},{"name":"Sovizzo","zone":9,"latitude":45.5276666,"longitude":11.4472037,"province":"VICENZA"},{"name":"Tezze sul Brenta","zone":9,"latitude":45.6844897,"longitude":11.7036109,"province":"VICENZA"},{"name":"Thiene","zone":9,"latitude":45.7098703,"longitude":11.4806296,"province":"VICENZA"},{"name":"Tonezza del Cimone","zone":8,"latitude":45.85555,"longitude":11.347173,"province":"VICENZA"},{"name":"Torrebelvicino","zone":8,"latitude":45.7178333,"longitude":11.3206481,"province":"VICENZA"},{"name":"Torri di Quartesolo","zone":9,"latitude":45.5230872,"longitude":11.6096963,"province":"VICENZA"},{"name":"Trissino","zone":9,"latitude":45.5622037,"longitude":11.3728333,"province":"VICENZA"},{"name":"Vicenza","zone":9,"latitude":45.5459053,"longitude":11.540307,"province":"VICENZA"},{"name":"Valdagno","zone":8,"latitude":45.6501997,"longitude":11.3009245,"province":"VICENZA"},{"name":"Valdastico","zone":4,"latitude":45.8876666,"longitude":11.3626666,"province":"VICENZA"},{"name":"Valli del Pasubio","zone":8,"latitude":45.7417222,"longitude":11.2628333,"province":"VICENZA"},{"name":"Valstagna","zone":4,"latitude":45.855273,"longitude":11.662358,"province":"VICENZA"},{"name":"Velo d\u0027Astico","zone":8,"latitude":45.7900493,"longitude":11.366323,"province":"VICENZA"},{"name":"Villaga","zone":9,"latitude":45.40336,"longitude":11.5332522,"province":"VICENZA"},{"name":"Villaverla","zone":9,"latitude":45.6526666,"longitude":11.4884629,"province":"VICENZA"},{"name":"Zanè","zone":9,"latitude":45.721991,"longitude":11.45639,"province":"VICENZA"},{"name":"Zermeghedo","zone":9,"latitude":45.4759514,"longitude":11.3706459,"province":"VICENZA"},{"name":"Zovencedo","zone":9,"latitude":45.4295555,"longitude":11.5042222,"province":"VICENZA"},{"name":"Zugliano","zone":9,"latitude":45.7307962,"longitude":11.525,"province":"VICENZA"}]